{
  "locations": [
    {
      "name": "Stockholm",
      "latitude": 59.3293,
      "longitude": 18.0686
    },
    {
      "name": "Göteborg",
      "latitude": 57.7089,
      "longitude": 11.9746,
      "previous_api_call": 0,
      "weather_data": {
        "utc_offset_seconds": 0,
        "timezone": "GMT",
        "elevation": 24,
        "time": "2025-09-28T11:45",
        "interval": 900,
        "temperature_2m": 15.2,
        "relative_humidity_2m": 67,
        "apparent_temperature": 12.7,
        "precipitation": 0,
        "rain": 0,
        "showers": 0,
        "snowfall": 0,
        "weather_code": 2,
        "cloud_cover": 74,
        "pressure_msl": 1032.9,
        "surface_pressure": 1030,
        "wind_speed_10m": 15.8,
        "wind_direction_10m": 113,
        "wind_gusts_10m": 32.4
      }
    },
    {
      "name": "Malmö",
      "latitude": 55.605,
      "longitude": 13.0038
    },
    {
      "name": "Uppsala",
      "latitude": "59.8586",
      "longitude": 17.6389
    },
    {
      "name": "Västerås",
      "latitude": 59.6099,
      "longitude": 16.5448
    },
    {
      "name": "Örebro",
      "latitude": 59.2741,
      "longitude": 15.2066
    },
    {
      "name": "Linköping",
      "latitude": 58.4109,
      "longitude": 15.6216
    },
    {
      "name": "Helsingborg",
      "latitude": 56.0465,
      "longitude": 12.6945
    },
    {
      "name": "Jönköping",
      "latitude": 57.7815,
      "longitude": 14.1562
    },
    {
      "name": "Norrköping",
      "latitude": 58.5877,
      "longitude": 16.1924
    },
    {
      "name": "Lund",
      "latitude": 55.7047,
      "longitude": 13.191
    },
    {
      "name": "Gävle",
      "latitude": 60.6749,
      "longitude": 17.1413
    },
    {
      "name": "Sundsvall",
      "latitude": 62.3908,
      "longitude": 17.3069
    },
    {
      "name": "Umeå",
      "latitude": 63.8258,
      "longitude": 20.263
    },
    {
      "name": "Luleå",
      "latitude": 65.5848,
      "longitude": 22.1567
    },
    {
      "name": "Kiruna",
      "latitude": 67.8558,
      "longitude": 20.2253
    }
  ]
}