{
  "locations": [
    {
      "name": "Stockholm",
      "latitude": 59.3293,
      "longitude": 18.0686
    },
    {
      "name": "Göteborg",
      "latitude": 57.7089,
      "longitude": 11.9746
    },
    {
      "name": "Malmö",
      "latitude": 55.6050,
      "longitude": 13.0038
    },
    {
      "name": "Uppsala",
      "latitude": "59.8586",
      "longitude": 17.6389
    },
    {
      "name": "Västerås",
      "latitude": 59.6099,
      "longitude": 16.5448
    },
    {
      "name": "Örebro",
      "latitude": 59.2741,
      "longitude": 15.2066
    },
    {
      "name": "Linköping",
      "latitude": 58.4109,
      "longitude": 15.6216
    },
    {
      "name": "Helsingborg",
      "latitude": 56.0465,
      "longitude": 12.6945
    },
    {
      "name": "Jönköping",
      "latitude": 57.7815,
      "longitude": 14.1562
    },
    {
      "name": "Norrköping",
      "latitude": 58.5877,
      "longitude": 16.1924
    },
    {
      "name": "Lund",
      "latitude": 55.7047,
      "longitude": 13.1910
    },
    {
      "name": "Gävle",
      "latitude": 60.6749,
      "longitude": 17.1413
    },
    {
      "name": "Sundsvall",
      "latitude": 62.3908,
      "longitude": 17.3069
    },
    {
      "name": "Umeå",
      "latitude": 63.8258,
      "longitude": 20.2630
    },
    {
      "name": "Luleå",
      "latitude": 65.5848,
      "longitude": 22.1567
    },
    {
      "name": "Kiruna",
      "latitude": 67.8558,
      "longitude": 20.2253
    }
  ]
}
